{"type":"Topology","objects":{"cities":{"type":"GeometryCollection","geometries":[{"type":"Point","properties":{"name":"Kagoshima","state":"Kagoshima"},"coordinates":[1729,3065]},{"type":"Point","properties":{"name":"Matsuyama","state":"Ehime"},"coordinates":[3049,4352]},{"type":"Point","properties":{"name":"Kanazawa","state":"Ishikawa"},"coordinates":[5368,5899]},{"type":"Point","properties":{"name":"Muroran","state":"Hokkaido"},"coordinates":[7967,9198]},{"type":"Point","properties":{"name":"Asahikawa","state":"Hokkaido"},"coordinates":[8805,9999]},{"type":"Point","properties":{"name":"Kobe","state":"Hyogo"},"coordinates":[4488,4828]},{"type":"Point","properties":{"name":"Yokohama","state":"Kanagawa"},"coordinates":[7129,5193]},{"type":"Point","properties":{"name":"Akita","state":"Akita"},"coordinates":[7434,7694]},{"type":"Point","properties":{"name":"Aomori","state":"Aomori"},"coordinates":[7805,8329]},{"type":"Point","properties":{"name":"Hirosaki","state":"Aomori"},"coordinates":[7661,8184]},{"type":"Point","properties":{"name":"Hachinohe","state":"Aomori"},"coordinates":[8302,8150]},{"type":"Point","properties":{"name":"Fukushima","state":"Fukushima"},"coordinates":[7661,6572]},{"type":"Point","properties":{"name":"Morioka","state":"Iwate"},"coordinates":[8056,7700]},{"type":"Point","properties":{"name":"Niigata","state":"Niigata"},"coordinates":[6805,6674]},{"type":"Point","properties":{"name":"Fukuoka","state":"Fukuoka"},"coordinates":[1637,4211]},{"type":"Point","properties":{"name":"Miyazaki","state":"Miyazaki"},"coordinates":[2242,3254]},{"type":"Point","properties":{"name":"Naha","state":"Okinawa"},"coordinates":[0,0]},{"type":"Point","properties":{"name":"Kochi","state":"Kochi"},"coordinates":[3511,4191]},{"type":"Point","properties":{"name":"Nagoya","state":"Aichi"},"coordinates":[5532,5100]},{"type":"Point","properties":{"name":"Nagano","state":"Nagano"},"coordinates":[6284,5950]},{"type":"Point","properties":{"name":"Kushiro","state":"Hokkaido"},"coordinates":[9999,9555]},{"type":"Point","properties":{"name":"Hakodate","state":"Hokkaido"},"coordinates":[7823,8882]},{"type":"Point","properties":{"name":"Kyoto","state":"Kyoto"},"coordinates":[4834,5028]},{"type":"Point","properties":{"name":"Sendai","state":"Miyagi"},"coordinates":[7990,6884]},{"type":"Point","properties":{"name":"Sakata","state":"Yamagata"},"coordinates":[7290,7244]},{"type":"Point","properties":{"name":"Nagasaki","state":"Nagasaki"},"coordinates":[1324,3737]},{"type":"Point","properties":{"name":"Hiroshima","state":"Hiroshima"},"coordinates":[2855,4663]},{"type":"Point","properties":{"name":"Sapporo","state":"Hokkaido"},"coordinates":[8181,9613]},{"type":"Point","properties":{"name":"Osaka","state":"Osaka"},"coordinates":[4661,4869]},{"type":"Point","properties":{"name":"Tokyo","state":"Tokyo"},"coordinates":[7230,5402]}]}},"arcs":[],"transform":{"scale":[0.0016703389902858951,0.0017549598587858625],"translate":[127.67297155671349,26.20717165018641]}}