{"type":"Topology","objects":{"cities":{"type":"GeometryCollection","geometries":[{"type":"Point","properties":{"name":"San Bernardino","state":"California"},"coordinates":[5102,2795]},{"type":"Point","properties":{"name":"Bridgeport","state":"Connecticut"},"coordinates":[9646,4164]},{"type":"Point","properties":{"name":"Rochester","state":"New York"},"coordinates":[9191,4549]},{"type":"Point","properties":{"name":"International Falls","state":"Minnesota"},"coordinates":[7564,5601]},{"type":"Point","properties":{"name":"St. Paul","state":"Minnesota"},"coordinates":[7597,4893]},{"type":"Point","properties":{"name":"Billings","state":"Montana"},"coordinates":[6005,5056]},{"type":"Point","properties":{"name":"Great Falls","state":"Montana"},"coordinates":[5720,5388]},{"type":"Point","properties":{"name":"Missoula","state":"Montana"},"coordinates":[5443,5266]},{"type":"Point","properties":{"name":"Minot","state":"North Dakota"},"coordinates":[6751,5530]},{"type":"Point","properties":{"name":"Fargo","state":"North Dakota"},"coordinates":[7216,5267]},{"type":"Point","properties":{"name":"Hilo","state":"Hawaii"},"coordinates":[1208,0]},{"type":"Point","properties":{"name":"Olympia","state":"Washington"},"coordinates":[4525,5299]},{"type":"Point","properties":{"name":"Spokane","state":"Washington"},"coordinates":[5090,5421]},{"type":"Point","properties":{"name":"Vancouver","state":"Washington"},"coordinates":[4552,5026]},{"type":"Point","properties":{"name":"Flagstaff","state":"Arizona"},"coordinates":[5684,3004]},{"type":"Point","properties":{"name":"Tucson","state":"Arizona"},"coordinates":[5762,2424]},{"type":"Point","properties":{"name":"Santa Barbara","state":"California"},"coordinates":[4853,2856]},{"type":"Point","properties":{"name":"Fresno","state":"California"},"coordinates":[4847,3304]},{"type":"Point","properties":{"name":"Eureka","state":"California"},"coordinates":[4396,4090]},{"type":"Point","properties":{"name":"Colorado Springs","state":"Colorado"},"coordinates":[6391,3714]},{"type":"Point","properties":{"name":"Reno","state":"Nevada"},"coordinates":[4842,3843]},{"type":"Point","properties":{"name":"Elko","state":"Nevada"},"coordinates":[5260,4096]},{"type":"Point","properties":{"name":"Albuquerque","state":"New Mexico"},"coordinates":[6200,2986]},{"type":"Point","properties":{"name":"Salem","state":"Oregon"},"coordinates":[4512,4890]},{"type":"Point","properties":{"name":"Casper","state":"Wyoming"},"coordinates":[6234,4490]},{"type":"Point","properties":{"name":"Topeka","state":"Kansas"},"coordinates":[7331,3750]},{"type":"Point","properties":{"name":"Kansas City","state":"Missouri"},"coordinates":[7441,3762]},{"type":"Point","properties":{"name":"Tulsa","state":"Oklahoma"},"coordinates":[7304,3182]},{"type":"Point","properties":{"name":"Sioux Falls","state":"South Dakota"},"coordinates":[7222,4622]},{"type":"Point","properties":{"name":"Shreveport","state":"Louisiana"},"coordinates":[7527,2481]},{"type":"Point","properties":{"name":"Baton Rouge","state":"Louisiana"},"coordinates":[7798,2085]},{"type":"Point","properties":{"name":"Ft. Worth","state":"Texas"},"coordinates":[7159,2527]},{"type":"Point","properties":{"name":"Corpus Christi","state":"Texas"},"coordinates":[7152,1559]},{"type":"Point","properties":{"name":"Austin","state":"Texas"},"coordinates":[7117,2048]},{"type":"Point","properties":{"name":"Amarillo","state":"Texas"},"coordinates":[6696,3010]},{"type":"Point","properties":{"name":"El Paso","state":"Texas"},"coordinates":[6214,2342]},{"type":"Point","properties":{"name":"Laredo","state":"Texas"},"coordinates":[6936,1513]},{"type":"Point","properties":{"name":"Burlington","state":"Vermont"},"coordinates":[9645,4802]},{"type":"Point","properties":{"name":"Montgomery","state":"Alabama"},"coordinates":[8299,2454]},{"type":"Point","properties":{"name":"Tallahassee","state":"Florida"},"coordinates":[8505,2084]},{"type":"Point","properties":{"name":"Orlando","state":"Florida"},"coordinates":[8803,1708]},{"type":"Point","properties":{"name":"Jacksonville","state":"Florida"},"coordinates":[8774,2061]},{"type":"Point","properties":{"name":"Savannah","state":"Georgia"},"coordinates":[8831,2388]},{"type":"Point","properties":{"name":"Columbia","state":"South Carolina"},"coordinates":[8853,2779]},{"type":"Point","properties":{"name":"Indianapolis","state":"Indiana"},"coordinates":[8310,3886]},{"type":"Point","properties":{"name":"Wilmington","state":"North Carolina"},"coordinates":[9158,2815]},{"type":"Point","properties":{"name":"Knoxville","state":"Tennessee"},"coordinates":[8542,3153]},{"type":"Point","properties":{"name":"Richmond","state":"Virginia"},"coordinates":[9208,3460]},{"type":"Point","properties":{"name":"Charleston","state":"West Virginia"},"coordinates":[8778,3615]},{"type":"Point","properties":{"name":"Baltimore","state":"Maryland"},"coordinates":[9294,3799]},{"type":"Point","properties":{"name":"Syracuse","state":"New York"},"coordinates":[9343,4526]},{"type":"Point","properties":{"name":"Augusta","state":"Maine"},"coordinates":[9999,4770]},{"type":"Point","properties":{"name":"Sault Ste. Marie","state":"Michigan"},"coordinates":[8498,5193]},{"type":"Point","properties":{"name":"Sitka","state":"Alaska"},"coordinates":[3244,7241]},{"type":"Point","properties":{"name":"Helena","state":"Montana"},"coordinates":[5644,5212]},{"type":"Point","properties":{"name":"Bismarck","state":"North Dakota"},"coordinates":[6804,5254]},{"type":"Point","properties":{"name":"Boise","state":"Idaho"},"coordinates":[5212,4634]},{"type":"Point","properties":{"name":"San Jose","state":"California"},"coordinates":[4633,3412]},{"type":"Point","properties":{"name":"Sacramento","state":"California"},"coordinates":[4672,3659]},{"type":"Point","properties":{"name":"Las Vegas","state":"Nevada"},"coordinates":[5316,3200]},{"type":"Point","properties":{"name":"Santa Fe","state":"New Mexico"},"coordinates":[6273,3098]},{"type":"Point","properties":{"name":"Portland","state":"Oregon"},"coordinates":[4547,5005]},{"type":"Point","properties":{"name":"Salt Lake City","state":"Utah"},"coordinates":[5655,4085]},{"type":"Point","properties":{"name":"Cheyenne","state":"Wyoming"},"coordinates":[6388,4155]},{"type":"Point","properties":{"name":"Des Moines","state":"Iowa"},"coordinates":[7542,4241]},{"type":"Point","properties":{"name":"Omaha","state":"Nebraska"},"coordinates":[7296,4175]},{"type":"Point","properties":{"name":"Oklahoma City","state":"Oklahoma"},"coordinates":[7140,3057]},{"type":"Point","properties":{"name":"Pierre","state":"South Dakota"},"coordinates":[6849,4781]},{"type":"Point","properties":{"name":"San Antonio","state":"Texas"},"coordinates":[7038,1897]},{"type":"Point","properties":{"name":"Jackson","state":"Mississippi"},"coordinates":[7896,2442]},{"type":"Point","properties":{"name":"Raleigh","state":"North Carolina"},"coordinates":[9085,3124]},{"type":"Point","properties":{"name":"Cleveland","state":"Ohio"},"coordinates":[8771,4220]},{"type":"Point","properties":{"name":"Cincinnati","state":"Ohio"},"coordinates":[8486,3772]},{"type":"Point","properties":{"name":"Nashville","state":"Tennessee"},"coordinates":[8247,3192]},{"type":"Point","properties":{"name":"Memphis","state":"Tennessee"},"coordinates":[7915,2989]},{"type":"Point","properties":{"name":"Norfolk","state":"Virginia"},"coordinates":[9329,3324]},{"type":"Point","properties":{"name":"Milwaukee","state":"Wisconsin"},"coordinates":[8129,4526]},{"type":"Point","properties":{"name":"Buffalo","state":"New York"},"coordinates":[9061,4493]},{"type":"Point","properties":{"name":"Pittsburgh","state":"Pennsylvania"},"coordinates":[8946,4018]},{"type":"Point","properties":{"name":"Kodiak","state":"Alaska"},"coordinates":[1484,7382]},{"type":"Point","properties":{"name":"Cold Bay","state":"Alaska"},"coordinates":[422,6880]},{"type":"Point","properties":{"name":"Bethel","state":"Alaska"},"coordinates":[521,7964]},{"type":"Point","properties":{"name":"Point Hope","state":"Alaska"},"coordinates":[0,9429]},{"type":"Point","properties":{"name":"Barrow","state":"Alaska"},"coordinates":[1033,9999]},{"type":"Point","properties":{"name":"Nome","state":"Alaska"},"coordinates":[144,8684]},{"type":"Point","properties":{"name":"Valdez","state":"Alaska"},"coordinates":[2108,8031]},{"type":"Point","properties":{"name":"Juneau","state":"Alaska"},"coordinates":[3338,7484]},{"type":"Point","properties":{"name":"Fairbanks","state":"Alaska"},"coordinates":[1968,8748]},{"type":"Point","properties":{"name":"Prudhoe Bay","state":"Alaska"},"coordinates":[1869,9805]},{"type":"Point","properties":{"name":"Minneapolis","state":"Minnesota"},"coordinates":[7580,4900]},{"type":"Point","properties":{"name":"Honolulu","state":"Hawaii"},"coordinates":[922,312]},{"type":"Point","properties":{"name":"Seattle","state":"Washington"},"coordinates":[4582,5402]},{"type":"Point","properties":{"name":"Phoenix","state":"Arizona"},"coordinates":[5641,2683]},{"type":"Point","properties":{"name":"San Diego","state":"California"},"coordinates":[5114,2543]},{"type":"Point","properties":{"name":"St. Louis","state":"Missouri"},"coordinates":[7890,3670]},{"type":"Point","properties":{"name":"New Orleans","state":"Louisiana"},"coordinates":[7911,1996]},{"type":"Point","properties":{"name":"Dallas","state":"Texas"},"coordinates":[7210,2543]},{"type":"Point","properties":{"name":"Boston","state":"Massachusetts"},"coordinates":[9866,4386]},{"type":"Point","properties":{"name":"Tampa","state":"Florida"},"coordinates":[8692,1599]},{"type":"Point","properties":{"name":"Philadelphia","state":"Pennsylvania"},"coordinates":[9443,3935]},{"type":"Point","properties":{"name":"Detroit","state":"Michigan"},"coordinates":[8628,4386]},{"type":"Point","properties":{"name":"Anchorage","state":"Alaska"},"coordinates":[1742,8047]},{"type":"Point","properties":{"name":"San Francisco","state":"California"},"coordinates":[4575,3502]},{"type":"Point","properties":{"name":"Denver","state":"Colorado"},"coordinates":[6371,3884]},{"type":"Point","properties":{"name":"Houston","state":"Texas"},"coordinates":[7365,1962]},{"type":"Point","properties":{"name":"Miami","state":"Florida"},"coordinates":[8923,1180]},{"type":"Point","properties":{"name":"Atlanta","state":"Georgia"},"coordinates":[8492,2739]},{"type":"Point","properties":{"name":"Chicago","state":"Illinois"},"coordinates":[8147,4289]},{"type":"Point","properties":{"name":"Los Angeles","state":"California"},"coordinates":[5011,2770]},{"type":"Point","properties":{"name":"Washington, D.C.","state":"District of Columbia"},"coordinates":[9254,3722]},{"type":"Point","properties":{"name":"New York","state":"New York"},"coordinates":[9566,4080]}]}},"arcs":[],"transform":{"scale":[0.00970377347797255,0.005159573147276777],"translate":[-166.80802006230326,19.699997781345246]}}